[
    {
        "Location": "Moscow",
        "Longitude": 37.61,
        "Latitude": 55.75,
        "Download": "https://drive.google.com/file/d/15cCmCGYcyKd39lXQHFbliRAMPHMAOeWw/view?usp=sharing",
        "Image": "2.png"
    },
 
    {
        "Location": "Norwegian Sea",
        "Longitude": 0.48,
        "Latitude": 60.98,
        "Download": "https://drive.google.com/file/d/1hsbGW6q-nSaM5rI6GX9o2PumyVlL26Oq/view?usp=sharing",
        "Image": "3.png"
    },
 
    {
        "Location": "Argentina",
        "Longitude": -63.61,
        "Latitude": -38.41,
        "Download": "https://github.com/Nehal-Khan-29/Open-Verse-Coordinates",
        "Image": "4.png"
    },
 
    {
        "Location": "<p style='text-align:center'>Bermuda Triangle<br>YOU ARE DEAD!!!<br>You came here even after the warning, IDIOT</p>",
        "Longitude": -71.00,
        "Latitude": 25.00,
        "Download": "https://github.com/Nehal-Khan-29/Open-Verse-Coordinates",
        "Image": "5.png"
    },
 
    {
        "Location": "Los Angeles",
        "Longitude": -118.24,
        "Latitude": 34.05,
        "Download": "https://rohit-prasanna.github.io/Debuug/",
        "Image": "6.png"
    },

    {
        "Location": "Cape Agulhas",
        "Longitude": 20.01,
        "Latitude": -34.82,
        "Download": "https://drive.google.com/file/d/1r34CbluWQpIHgVlpslVZCYFSkCYz9HfL/view?usp=sharing",
        "Image": "7.png"
    },

    {
        "Location": "Nigeria",
        "Longitude": 8.67,
        "Latitude": 9.08,
        "Download": "",
        "Image": "8.png"
    },

    {
        "Location": "<p style='text-align:center'>Bermuda Triangle<br>YOU ARE DEAD!!!<br>You WIN <br>but I just wanted you dead</p>",
        "Longitude": -70.00,
        "Latitude": 24.00,
        "Download": "",
        "Image": "9.png"
    }

]

